,station id,station latitude,station longitude,station name
0,72.0,40.76727216,-73.99392888,W 52 St & 11 Ave
1,79.0,40.71911552,-74.00666661,Franklin St & W Broadway
2,82.0,40.71117416,-74.00016545,St James Pl & Pearl St
3,83.0,40.68382604,-73.97632328,Atlantic Ave & Fort Greene Pl
4,119.0,40.69608941,-73.97803415,Park Ave & St Edwards St
5,120.0,40.68676793,-73.95928168,Lexington Ave & Classon Ave
6,127.0,40.73172428,-74.00674436,Barrow St & Hudson St
7,128.0,40.72710258,-74.00297088,MacDougal St & Prince St
8,143.0,40.69239502,-73.99337909,Clinton St & Joralemon St
9,144.0,40.69839895,-73.98068914,Nassau St & Navy St
10,146.0,40.71625008,-74.0091059,Hudson St & Reade St
11,150.0,40.720873600000004,-73.98085795,E 2 St & Avenue C
12,151.0,40.72210379,-73.99724901,Cleveland Pl & Spring St
13,157.0,40.69089272,-73.99612349,Henry St & Atlantic Ave
14,164.0,40.75323098,-73.97032517,E 47 St & 2 Ave
15,167.0,40.7489006,-73.97604882,E 39 St & 3 Ave
16,168.0,40.73971301,-73.99456405,W 18 St & 6 Ave
17,173.0,40.76068327,-73.98452729,Broadway & W 49 St
18,174.0,40.7381765,-73.97738662,E 25 St & 1 Ave
19,195.0,40.70905623,-74.01043382,Liberty St & Broadway
20,212.0,40.74334935,-74.00681753,W 16 St & The High Line
21,216.0,40.70037867,-73.99548059,Columbia Heights & Cranberry St
22,217.0,40.70277159,-73.99383605,Old Fulton St
23,223.0,40.73781509,-73.99994661,W 13 St & 7 Ave
24,228.0,40.7546011,-73.97187886,E 48 St & 3 Ave
25,229.0,40.72743423,-73.99379025,Great Jones St
26,232.0,40.69597683,-73.99014892,Cadman Plaza E & Tillary St
27,236.0,40.7284186,-73.98713956,St Marks Pl & 2 Ave
28,237.0,40.73047309,-73.98672378,E 11 St & 2 Ave
29,238.0,40.7361967,-74.00859207,Bank St & Washington St
30,239.0,40.69196566,-73.9813018,Willoughby St & Fleet St
31,241.0,40.68981035,-73.97493121,DeKalb Ave & S Portland Ave
32,242.0,40.697787,-73.973736,Carlton Ave & Flushing Ave
33,243.0,40.688226,-73.979382,Fulton St & Rockwell Pl
34,244.0,40.69196035,-73.96536851,Willoughby Ave & Hall St
35,245.0,40.69327018,-73.97703874,Myrtle Ave & St Edwards St
36,247.0,40.73535398,-74.00483091,Perry St & Bleecker St
37,248.0,40.72185379,-74.00771779,Laight St & Hudson St
38,249.0,40.71870987,-74.0090009,Harrison St & Hudson St
39,251.0,40.72317958,-73.99480012,Mott St & Prince St
40,252.0,40.73226398,-73.99852205,MacDougal St & Washington Sq
41,253.0,40.73543934,-73.99453948,W 13 St & 5 Ave
42,254.0,40.73532427,-73.99800419,W 11 St & 6 Ave
43,257.0,40.71939226,-74.00247214,Lispenard St & Broadway
44,258.0,40.68940747,-73.96885458,DeKalb Ave & Vanderbilt Ave
45,259.0,40.70122128,-74.01234218,South St & Whitehall St
46,260.0,40.70365182,-74.01167797,Broad St & Bridge St
47,261.0,40.69474881,-73.98362464,Johnson St & Gold St
48,262.0,40.6917823,-73.97372990000001,Washington Park
49,264.0,40.70706456,-74.00731853,Maiden Ln & Pearl St
50,265.0,40.72229346,-73.99147535,Stanton St & Chrystie St
51,266.0,40.72368361,-73.97574813,Avenue D & E 8 St
52,267.0,40.75097711,-73.98765428,Broadway & W 36 St
53,268.0,40.71910537,-73.99973337,Howard St & Centre St
54,270.0,40.69308257,-73.97178913,Adelphi St & Myrtle Ave
55,274.0,40.68691865,-73.976682,Lafayette Ave & Fort Greene Pl
56,275.0,40.68650065,-73.96563307,Washington Ave & Greene Ave
57,276.0,40.71748752,-74.0104554,Duane St & Greenwich St
58,278.0,40.69766564,-73.98476437,Concord St & Bridge St
59,279.0,40.707873,-74.00166999999999,Peck Slip & Front St
60,280.0,40.73331967,-73.99510132,E 10 St & 5 Ave
61,281.0,40.764397100000004,-73.97371465,Grand Army Plaza & Central Park S
62,282.0,40.70764494,-73.96841526,Kent Ave & S 11 St
63,285.0,40.73454567,-73.99074142,Broadway & E 14 St
64,289.0,40.684568299999995,-73.95881081,Monroe St & Classon Ave
65,291.0,40.713126,-73.984844,Madison St & Montgomery St
66,293.0,40.73020661,-73.99102628,Lafayette St & E 8 St
67,295.0,40.71406667,-73.99293911,Pike St & E Broadway
68,296.0,40.71413089,-73.99704679999999,Division St & Bowery
69,297.0,40.734232,-73.986923,E 15 St & 3 Ave
70,298.0,40.68683208,-73.9796772,3 Ave & Schermerhorn St
71,301.0,40.72217444,-73.98368779,E 2 St & Avenue B
72,302.0,40.72082834,-73.97793172,Avenue D & E 3 St
73,303.0,40.72362738,-73.99949601,Mercer St & Spring St
74,304.0,40.70463334,-74.01361706,Broadway & Battery Pl
75,305.0,40.76095756,-73.96724467,E 58 St & 3 Ave
76,307.0,40.71427487,-73.98990025,Canal St & Rutgers St
77,308.0,40.71307916,-73.99851193,St James Pl & Oliver St
78,309.0,40.7149787,-74.013012,Murray St & West St
79,310.0,40.68926942,-73.98912867,State St & Smith St
80,311.0,40.7172274,-73.98802084,Norfolk St & Broome St
81,312.0,40.722055,-73.989111,Allen St & Stanton St
82,313.0,40.69610226,-73.96751037,Washington Ave & Park Ave
83,314.0,40.69383,-73.990539,Cadman Plaza West & Montague St
84,315.0,40.70355377,-74.00670227,South St & Gouverneur Ln
85,316.0,40.70955958,-74.00653609,Fulton St & William St
86,317.0,40.72453734,-73.98185424,E 6 St & Avenue B
87,319.0,40.711065999999995,-74.009447,Fulton St & Broadway
88,320.0,40.717571,-74.005549,Leonard St & Church St
89,321.0,40.69991755,-73.98971773,Cadman Plaza E & Red Cross Pl
90,322.0,40.696191999999996,-73.991218,Clinton St & Tillary St
91,323.0,40.69236178,-73.98631746,Lawrence St & Willoughby St
92,324.0,40.689888,-73.981013,DeKalb Ave & Hudson Ave
93,325.0,40.73624527,-73.98473765,E 19 St & 3 Ave
94,326.0,40.72953837,-73.98426726,E 11 St & 1 Ave
95,327.0,40.715337899999994,-74.01658354,Vesey Pl & River Terrace
96,328.0,40.72405549,-74.00965965,Watts St & Greenwich St
97,330.0,40.71450451,-74.00562789,Reade St & Broadway
98,331.0,40.71173107,-73.99193043,Pike St & Monroe St
99,332.0,40.71219906,-73.97948148,Cherry St
100,334.0,40.74238787,-73.99726235,W 20 St & 7 Ave
101,335.0,40.72903917,-73.99404649,Washington Pl & Broadway
102,336.0,40.73047747,-73.99906065,Sullivan St & Washington Sq
103,337.0,40.703799200000006,-74.00838676,Old Slip & Front St
104,339.0,40.72580614,-73.97422494,Avenue D & E 12 St
105,340.0,40.71269042,-73.98776323,Madison St & Clinton St
106,341.0,40.71782143,-73.97628939,Stanton St & Mangin St
107,342.0,40.71739973,-73.98016555,Columbia St & Rivington St
108,343.0,40.69794,-73.96986848,Clinton Ave & Flushing Ave
109,344.0,40.6851443,-73.95380904,Monroe St & Bedford Ave
110,345.0,40.73649403,-73.99704374,W 13 St & 6 Ave
111,346.0,40.73652889,-74.00618026,Bank St & Hudson St
112,347.0,40.728846000000004,-74.00859100000001,Greenwich St & W Houston St
113,349.0,40.71850211,-73.98329859,Rivington St & Ridge St
114,350.0,40.71559509,-73.9870295,Clinton St & Grand St
115,351.0,40.70530954,-74.00612572,Front St & Maiden Ln
116,353.0,40.68539567,-73.97431458,S Portland Ave & Hanson Pl
117,354.0,40.69363137,-73.96223558,Emerson Pl & Myrtle Ave
118,355.0,40.71602118,-73.99974372,Bayard St & Baxter St
119,356.0,40.71622644,-73.98261206,Bialystoker Pl & Delancey St
120,357.0,40.73261787,-73.99158043,E 11 St & Broadway
121,358.0,40.73291553,-74.00711384,Christopher St & Greenwich St
122,359.0,40.75510267,-73.97498696,E 47 St & Park Ave
123,360.0,40.70717936,-74.00887308,William St & Pine St
124,361.0,40.71605866,-73.99190759,Allen St & Hester St
125,362.0,40.75172632,-73.98753523,Broadway & W 37 St
126,363.0,40.70834698,-74.01713445,West Thames St
127,364.0,40.68900443,-73.96023854,Lafayette Ave & Classon Ave
128,365.0,40.68223166,-73.9614583,Fulton St & Grand Ave
129,366.0,40.693261,-73.968896,Clinton Ave & Myrtle Ave
130,368.0,40.73038599,-74.00214988,Carmine St & 6 Ave
131,369.0,40.73224119,-74.00026394,Washington Pl & 6 Ave
132,372.0,40.69454609,-73.95801365,Franklin Ave & Myrtle Ave
133,373.0,40.69331716,-73.95381995,Willoughby Ave & Walworth St
134,376.0,40.70862144,-74.00722156,John St & William St
135,377.0,40.72243797,-74.00566443,6 Ave & Canal St
136,379.0,40.749156,-73.9916,W 31 St & 7 Ave
137,380.0,40.73401143,-74.00293877,W 4 St & 7 Ave S
138,382.0,40.73492695,-73.99200509,University Pl & E 14 St
139,383.0,40.735238,-74.000271,Greenwich Ave & Charles St
140,386.0,40.71494807,-74.00234482,Centre St & Worth St
141,387.0,40.71273266,-74.0046073,Centre St & Chambers St
142,388.0,40.74971775,-74.00295035,W 26 St & 10 Ave
143,389.0,40.71044554,-73.96525063,Broadway & Berry St
144,390.0,40.69221589,-73.9842844,Duffield St & Willoughby St
145,391.0,40.69760127,-73.99344559,Clark St & Henry St
146,392.0,40.695065,-73.987167,Jay St & Tech Pl
147,393.0,40.72299208,-73.97995466,E 5 St & Avenue C
148,394.0,40.72521311,-73.97768752,E 9 St & Avenue C
149,396.0,40.68034242,-73.95576894,Lefferts Pl & Franklin Ave
150,397.0,40.68415748,-73.96922273,Fulton St & Clermont Ave
151,398.0,40.69165183,-73.99997859999999,Atlantic Ave & Furman St
152,399.0,40.68851534,-73.9647628,Lafayette Ave & St James Pl
153,400.0,40.71926081,-73.98178024,Pitt St & Stanton St
154,401.0,40.72019576,-73.98997825,Allen St & Rivington St
155,402.0,40.740343200000005,-73.98955109,Broadway & E 22 St
156,403.0,40.72502876,-73.99069656,E 2 St & 2 Ave
157,405.0,40.739323,-74.008119,Washington St & Gansevoort St
158,406.0,40.69512845,-73.99595065,Hicks St & Montague St
159,407.0,40.700469,-73.991454,Henry St & Poplar St
160,408.0,40.71076228,-73.99400398,Market St & Cherry St
161,409.0,40.6906495,-73.95643107,DeKalb Ave & Skillman St
162,410.0,40.72066442,-73.98517977,Suffolk St & Stanton St
163,411.0,40.72228087,-73.97668709,E 6 St & Avenue D
164,412.0,40.715815500000005,-73.99422366,Forsyth St & Canal St
165,414.0,40.70281858,-73.98765762,Pearl St & Anchorage Pl
166,415.0,40.7047177,-74.00926027,Pearl St & Hanover Square
167,416.0,40.68753406,-73.97265183,Cumberland St & Lafayette Ave
168,417.0,40.71291224,-74.01020234,Barclay St & Church St
169,418.0,40.70224,-73.982578,Front St & Gold St
170,419.0,40.69580705,-73.97355569,Carlton Ave & Park Ave
171,420.0,40.68764484,-73.96968902,Clermont Ave & Lafayette Ave
172,421.0,40.69573398,-73.97129668,Clermont Ave & Park Ave
173,422.0,40.770513,-73.988038,W 59 St & 10 Ave
174,423.0,40.76584941,-73.98690506,W 54 St & 9 Ave
175,426.0,40.71754834,-74.01322069,West St & Chambers St
176,427.0,40.701907,-74.013942,Bus Slip & State St
177,432.0,40.72621788,-73.98379855,E 7 St & Avenue A
178,433.0,40.72955361,-73.98057249,E 13 St & Avenue A
179,435.0,40.74173969,-73.99415556,W 21 St & 6 Ave
180,436.0,40.68216564,-73.95399026,Hancock St & Bedford Ave
181,437.0,40.68098339,-73.95004798,Macon St & Nostrand Ave
182,438.0,40.72779126,-73.98564945,St Marks Pl & 1 Ave
183,440.0,40.75255434,-73.97282625,E 45 St & 3 Ave
184,441.0,40.756014,-73.967416,E 52 St & 2 Ave
185,442.0,40.746646999999996,-73.993915,W 27 St & 7 Ave
186,443.0,40.70853074,-73.96408963,Bedford Ave & S 9 St
187,445.0,40.72740794,-73.98142006,E 10 St & Avenue A
188,446.0,40.74487634,-73.99529885,W 24 St & 7 Ave
189,447.0,40.76370739,-73.9851615,8 Ave & W 52 St
190,448.0,40.75660359,-73.9979009,W 37 St & 10 Ave
191,450.0,40.76227205,-73.98788205,W 49 St & 8 Ave
192,453.0,40.74475148,-73.99915362,W 22 St & 8 Ave
193,454.0,40.75455731,-73.96592976,E 51 St & 1 Ave
194,455.0,40.75001986,-73.96905301,1 Ave & E 44 St
195,456.0,40.75971079999999,-73.97402311,E 53 St & Madison Ave
196,457.0,40.76695317,-73.98169333,Broadway & W 58 St
197,458.0,40.751396,-74.00522600000001,11 Ave & W 27 St
198,459.0,40.746745000000004,-74.007756,W 20 St & 11 Ave
199,460.0,40.71285887,-73.96590294,S 4 St & Wythe Ave
200,461.0,40.73587678,-73.98205027,E 20 St & 2 Ave
201,462.0,40.74691959,-74.00451887,W 22 St & 10 Ave
202,465.0,40.75513557,-73.98658032,Broadway & W 41 St
203,466.0,40.74395411,-73.99144871,W 25 St & 6 Ave
204,467.0,40.68312489,-73.97895137,Dean St & 4 Ave
205,468.0,40.7652654,-73.98192338,Broadway & W 56 St
206,469.0,40.76344058,-73.98268129,Broadway & W 53 St
207,470.0,40.74345335,-74.00004031,W 20 St & 8 Ave
208,471.0,40.71286844,-73.95698119,Grand St & Havemeyer St
209,472.0,40.745712100000006,-73.98194829,E 32 St & Park Ave
210,473.0,40.72110063,-73.99192540000001,Rivington St & Chrystie St
211,474.0,40.7451677,-73.98683077,5 Ave & E 29 St
212,476.0,40.74394314,-73.97966069,E 31 St & 3 Ave
213,477.0,40.75640548,-73.9900262,W 41 St & 8 Ave
214,478.0,40.76030096,-73.99884222,11 Ave & W 41 St
215,479.0,40.76019252,-73.9912551,9 Ave & W 45 St
216,480.0,40.76669671,-73.99061728,W 53 St & 10 Ave
217,481.0,40.71260486,-73.96264403,S 3 St & Bedford Ave
218,482.0,40.73935542,-73.99931783,W 15 St & 7 Ave
219,483.0,40.73223272,-73.98889957,E 12 St & 3 Ave
220,484.0,40.75500254,-73.98014437,W 44 St & 5 Ave
221,485.0,40.75038009,-73.98338988,W 37 St & 5 Ave
222,486.0,40.7462009,-73.98855723,Broadway & W 29 St
223,487.0,40.73314259,-73.97573881,E 20 St & FDR Drive
224,490.0,40.751551,-73.993934,8 Ave & W 33 St
225,491.0,40.74096374,-73.98602213,E 24 St & Park Ave S
226,492.0,40.75019995,-73.99093085,W 33 St & 7 Ave
227,493.0,40.7568001,-73.98291153,W 45 St & 6 Ave
228,494.0,40.74734825,-73.99723551,W 26 St & 8 Ave
229,495.0,40.76269882,-73.99301222,W 47 St & 10 Ave
230,496.0,40.73726186,-73.99238967,E 16 St & 5 Ave
231,497.0,40.73704984,-73.99009296,E 17 St & Broadway
232,498.0,40.74854862,-73.98808416,Broadway & W 32 St
233,499.0,40.76915505,-73.98191841,Broadway & W 60 St
234,500.0,40.76228826,-73.98336183,Broadway & W 51 St
235,501.0,40.744219,-73.97121214,FDR Drive & E 35 St
236,502.0,40.714215,-73.981346,Henry St & Grand St
237,503.0,40.73827428,-73.98751968,E 20 St & Park Ave
238,504.0,40.73221853,-73.98165557,1 Ave & E 16 St
239,505.0,40.74901271,-73.98848395,6 Ave & W 33 St
240,507.0,40.73912601,-73.97973776,E 25 St & 2 Ave
241,508.0,40.76341379,-73.99667444,W 46 St & 11 Ave
242,509.0,40.7454973,-74.00197139,9 Ave & W 22 St
243,513.0,40.768254,-73.988639,W 56 St & 10 Ave
244,514.0,40.76087502,-74.00277668,12 Ave & W 40 St
245,515.0,40.76009437,-73.99461843,W 43 St & 10 Ave
246,516.0,40.75206862,-73.96784384,E 47 St & 1 Ave
247,517.0,40.751581,-73.97791,Pershing Square South
248,518.0,40.74780373,-73.97344190000001,E 39 St & 2 Ave
249,519.0,40.751872999999996,-73.97770600000001,Pershing Square North
250,520.0,40.75992262,-73.97648516,W 52 St & 5 Ave
251,522.0,40.75714758,-73.97207836,E 51 St & Lexington Ave
252,523.0,40.75466591,-73.99138152,W 38 St & 8 Ave
253,524.0,40.75527307,-73.98316936,W 43 St & 6 Ave
254,525.0,40.75594159,-74.0021163,W 34 St & 11 Ave
255,526.0,40.74765947,-73.98490707,E 33 St & 5 Ave
256,528.0,40.74290902,-73.97706058,2 Ave & E 31 St
257,529.0,40.75756989999999,-73.99098507,W 42 St & 8 Ave
258,530.0,40.771522,-73.99054100000001,11 Ave & W 59 St
259,531.0,40.71893904,-73.99266288,Forsyth St & Broome St
260,532.0,40.710451,-73.960876,S 5 Pl & S 5 St
261,533.0,40.75299641,-73.98721619,Broadway & W 38 St
262,534.0,40.70255065,-74.0127234,Water - Whitehall Plaza
263,536.0,40.74144387,-73.97536082,1 Ave & E 30 St
264,537.0,40.74025878,-73.98409214,Lexington Ave & E 24 St
265,539.0,40.71534825,-73.96024116,Metropolitan Ave & Bedford Ave
266,540.0,40.74311555,-73.98215353,Lexington Ave & E 29 St
267,545.0,40.736502,-73.97809472,E 23 St & 1 Ave
268,546.0,40.74444921,-73.98303529,E 30 St & Park Ave S
269,2000.0,40.70255088,-73.98940236,Front St & Washington St
270,2002.0,40.716887,-73.96319799999999,Wythe Ave & Metropolitan Ave
271,2003.0,40.73381219,-73.98054421,1 Ave & E 18 St
272,2005.0,40.70531194,-73.97100056,Railroad Ave & Kay Ave
273,2006.0,40.76590936,-73.97634151,Central Park S & 6 Ave
274,2008.0,40.70569254,-74.01677685,Little West St & 1 Pl
275,2009.0,40.71117444,-73.99682619,Catherine St & Monroe St
276,2010.0,40.72165481,-74.00234737,Grand St & Greene St
277,2012.0,40.739445,-73.97680600000001,E 27 St & 1 Ave
278,2021.0,40.75929124,-73.98859651,W 45 St & 8 Ave
279,2022.0,40.759107,-73.959223,E 60 St & York Ave
280,2023.0,40.75968085,-73.97031366,E 55 St & Lexington Ave
281,3002.0,40.711512,-74.01575600000001,South End Ave & Liberty St
282,3016.0,40.72036775,-73.96165073,Kent Ave & N 7 St
283,3041.0,40.67890679,-73.94142771,Kingston Ave & Herkimer St
284,3042.0,40.6794268,-73.92989109999999,Fulton St & Utica Ave
285,3043.0,40.6814598,-73.934903,Lewis Ave & Decatur St
286,3044.0,40.6800105,-73.938475,Albany Ave & Fulton St
287,3046.0,40.682601,-73.938037,Marcus Garvey Blvd & Macon St
288,3047.0,40.682368700000005,-73.944118,Halsey St & Tompkins Ave
289,3048.0,40.684020000000004,-73.94977,Putnam Ave & Nostrand Ave
290,3049.0,40.68488,-73.96304,Cambridge Pl & Gates Ave
291,3050.0,40.6851532,-73.94111,Putnam Ave & Throop Ave
292,3052.0,40.686312,-73.935775,Lewis Ave & Madison St
293,3053.0,40.6900815,-73.94791500000001,Marcy Ave & Lafayette Ave
294,3054.0,40.6894932,-73.942061,Greene Ave & Throop Ave
295,3055.0,40.68833370000001,-73.950916,Greene Ave & Nostrand Ave
296,3056.0,40.69072549,-73.95133465,Kosciuszko St & Nostrand Ave
297,3057.0,40.69128258,-73.9452416,Kosciuszko St & Tompkins Ave
298,3058.0,40.69237074,-73.93705428,Lewis Ave & Kosciuszko St
299,3059.0,40.693398200000004,-73.939877,Pulaski St & Marcus Garvey Blvd
300,3060.0,40.69425403,-73.94626915,Willoughby Ave & Tompkins Ave
301,3061.0,40.69622937,-73.94371094,Throop Ave & Myrtle Ave
302,3062.0,40.69539817,-73.94954908,Myrtle Ave & Marcy Ave
303,3063.0,40.69527008,-73.95238108,Nostrand Ave & Myrtle Ave
304,3064.0,40.69681963,-73.93756926,Myrtle Ave & Lewis Ave
305,3065.0,40.70029511,-73.95032283,Union Ave & Wallabout St
306,3066.0,40.69957608,-73.94708417,Tompkins Ave & Hopkins St
307,3067.0,40.7016657,-73.9437303,Broadway & Whipple St
308,3068.0,40.7031724,-73.940636,Humboldt St & Varet St
309,3069.0,40.70411791,-73.94818595,Lorimer St & Broadway
310,3070.0,40.70510918,-73.94407279,McKibbin St & Manhattan Ave
311,3071.0,40.70538077,-73.94976519,Boerum St & Broadway
312,3072.0,40.70583339,-73.94644578,Leonard St & Boerum St
313,3074.0,40.70767788,-73.94016171,Montrose Ave & Bushwick Ave
314,3075.0,40.70708701,-73.95796783,Division Ave & Marcy Ave
315,3076.0,40.70870368,-73.9448625,Scholes St & Manhattan Ave
316,3077.0,40.70877084,-73.95095259,Stagg St & Union Ave
317,3078.0,40.70924826,-73.96063149,Broadway & Roebling St
318,3080.0,40.709340000000005,-73.95608,S 4 St & Rodney St
319,3081.0,40.711863,-73.944024,Graham Ave & Grand St
320,3082.0,40.71167351,-73.95141312,Hope St & Union Ave
321,3083.0,40.71247661,-73.94100005,Bushwick Ave & Powers St
322,3086.0,40.715143,-73.944507,Graham Ave & Conselyea St
323,3087.0,40.71413311,-73.95234386,Metropolitan Ave & Meeker Ave
324,3088.0,40.7160751,-73.95202900000001,Union Ave & Jackson St
325,3090.0,40.71774592,-73.95600096,N 8 St & Driggs Ave
326,3091.0,40.71764,-73.94882,Frost St & Meeker St
327,3092.0,40.7190095,-73.95852515,Berry St & N 8 St
328,3093.0,40.71745169,-73.95850939,N 6 St & Bedford Ave
329,3094.0,40.7169811,-73.94485918,Graham Ave & Withers St
330,3095.0,40.71929301,-73.94500379,Graham Ave & Herbert St
331,3096.0,40.71924,-73.95241999999999,Union Ave & N 12 St
332,3100.0,40.72481256,-73.94752622,Nassau Ave & Newell St
333,3101.0,40.72079821,-73.95484712,N 12 St & Bedford Ave
334,3102.0,40.72179134,-73.95041540000001,Driggs Ave & Lorimer St
335,3105.0,40.724055,-73.955736,N 15 St & Wythe Ave
336,3106.0,40.72325,-73.94308000000001,Driggs Ave & N Henry St
337,3107.0,40.72311651,-73.95212324,Bedford Ave & Nassau Ave
338,3108.0,40.725570000000005,-73.94434,Nassau Ave & Russell St
339,3109.0,40.72606,-73.95621,Banker St & Meserole Ave
340,3110.0,40.72708584,-73.95299117,Meserole Ave & Manhattan Ave
341,3112.0,40.72906,-73.95779,Milton St & Franklin St
342,3113.0,40.730259999999994,-73.95394,Greenpoint Ave & Manhattan Ave
343,3115.0,40.73232194,-73.9550858,India St & Manhattan Ave
344,3116.0,40.732659999999996,-73.95826,Huron St & Franklin St
345,3117.0,40.735640000000004,-73.95866,Franklin St & Dupont St
346,3118.0,40.73555,-73.95284000000001,McGuinness Blvd & Eagle St
347,3119.0,40.74232744,-73.95411749,Vernon Blvd & 50 Ave
348,3120.0,40.741609999999994,-73.96044,Center Blvd & Borden Ave
349,3121.0,40.74524768,-73.94733276,Jackson Ave & 46 Rd
350,3122.0,40.74436329,-73.95587325,48 Ave & 5 St
351,3123.0,40.74469738,-73.93540375,31 St & Thomson Ave
352,3124.0,40.74731,-73.95451,46 Ave & 5 St
353,3125.0,40.74708586,-73.94977234,45 Rd & 11 St
354,3126.0,40.74718234,-73.9432635,44 Dr & Jackson Ave
355,3127.0,40.74966,-73.9521,9 St & 44 Rd
356,3128.0,40.75052534,-73.94594845,21 St & 43 Ave
357,3129.0,40.75110165,-73.94073717,Queens Plaza North & Crescent St
358,3130.0,40.75325964,-73.94335788,21 St & Queens Plaza North
359,3131.0,40.7671284,-73.96224618,E 68 St & 3 Ave
360,3132.0,40.76350532,-73.97109243,E 59 St & Madison Ave
361,3134.0,40.76312584,-73.96526895,3 Ave & E 62 St
362,3135.0,40.77112927,-73.95772297,E 75 St & 3 Ave
363,3136.0,40.766368,-73.971518,5 Ave & E 63 St
364,3137.0,40.77282817,-73.96685276,5 Ave & E 73 St
365,3139.0,40.77118288,-73.96409422,E 72 St & Park Ave
366,3140.0,40.77140426,-73.9535166,1 Ave & E 78 St
367,3141.0,40.76500525,-73.95818491,1 Ave & E 68 St
368,3142.0,40.761227399999996,-73.96094022,1 Ave & E 62 St
369,3143.0,40.77632142,-73.96427393,5 Ave & E 78 St
370,3144.0,40.77677702,-73.95900970000001,E 81 St & Park Ave
371,3145.0,40.77862688,-73.95772073,E 84 St & Park Ave
372,3146.0,40.77573034,-73.9567526,E 81 St & 3 Ave
373,3147.0,40.77801203,-73.95407149,E 85 St & 3 Ave
374,3148.0,40.77565541,-73.95068615,E 84 St & 1 Ave
375,3150.0,40.77536905,-73.94803392,E 85 St & York Ave
376,3151.0,40.7728384,-73.94989233,E 81 St & York Ave
377,3152.0,40.76873687,-73.96119945,3 Ave & E 71 St
378,3153.0,40.76817547,-73.95910263,E 71 St & 2 Ave
379,3155.0,40.76440023,-73.96648977,Lexington Ave & E 63 St
380,3156.0,40.76663814,-73.95348296,E 72 St & York Ave
381,3157.0,40.77518615,-73.94446054,East End Ave & E 86 St
382,3158.0,40.77163851,-73.98261428,W 63 St & Broadway
383,3159.0,40.77492513,-73.98266566,W 67 St & Broadway
384,3160.0,40.77896784,-73.97374737,Central Park West & W 76 St
385,3161.0,40.78018397,-73.97728533,W 76 St & Columbus Ave
386,3162.0,40.78339981,-73.98093133,W 78 St & Broadway
387,3163.0,40.7734066,-73.97782542,Central Park West & W 68 St
388,3164.0,40.7770575,-73.97898475,Columbus Ave & W 72 St
389,3165.0,40.77579377,-73.97620574,Central Park West & W 72 St
390,3166.0,40.78057799,-73.98562431,Riverside Dr & W 72 St
391,3167.0,40.77966809,-73.98093045,Amsterdam Ave & W 73 St
392,3168.0,40.78472675,-73.96961715,Central Park West & W 85 St
393,3169.0,40.78720869,-73.98128127,Riverside Dr & W 82 St
394,3170.0,40.78499979,-73.97283406,W 84 St & Columbus Ave
395,3171.0,40.78524672,-73.97667321,Amsterdam Ave & W 82 St
396,3172.0,40.7785669,-73.97754961,W 74 St & Columbus Ave
397,3173.0,40.77750703,-73.98888588,Riverside Blvd & W 67 St
398,3175.0,40.77748046,-73.98288594,W 70 St & Amsterdam Ave
399,3177.0,40.7867947,-73.977112,W 84 St & Broadway
400,3178.0,40.78414472,-73.98362492,Riverside Dr & W 78 St
401,3179.0,40.698617,-73.941342,Park Ave & Marcus Garvey Blvd
402,3180.0,40.69878,-73.99712,Brooklyn Bridge Park - Pier 2
403,3182.0,40.686931,-74.016966,Yankee Ferry Terminal
404,3183.0,40.7162469,-74.0334588,Exchange Place
405,3184.0,40.7141454,-74.0335519,Paulus Hook
406,3187.0,40.721123600000006,-74.03805095,Warren St
407,3191.0,40.71821129999999,-74.08363940000001,Union St
408,3192.0,40.711242299999995,-74.0557013,Liberty Light Rail
409,3198.0,40.74871595,-74.04044329999999,Heights Elevator
410,3199.0,40.728744799999994,-74.03210820000001,Newport Pkwy
411,3214.0,40.712774200000005,-74.03648570000001,Essex Light Rail
412,3221.0,40.743,-73.93561,47 Ave & 31 St
413,3223.0,40.75899656,-73.96865398,E 55 St & 3 Ave
414,3226.0,40.78275,-73.97137,W 82 St & Central Park West
415,3231.0,40.767800799999996,-73.96592081,E 67 St & Park Ave
416,3232.0,40.68962189,-73.98304269,Bond St & Fulton St
417,3233.0,40.75724568,-73.97805914,E 48 St & 5 Ave
418,3235.0,40.75216528,-73.97992194,E 41 St & Madison Ave
419,3236.0,40.75898481,-73.99379969,W 42 St & Dyer Ave
420,3239.0,40.64653837,-74.01658773,Bressler
421,3240.0,40.75903008,-73.9938587,NYCBS Depot BAL - DYR
422,3241.0,40.686203000000006,-73.944694,Monroe St & Tompkins Ave
423,3242.0,40.69102926,-73.99183363,Schermerhorn St & Court St
424,3243.0,40.75892386,-73.96226227,E 58 St & 1 Ave
425,3244.0,40.73143724,-73.99490342,University Pl & E 8 St
426,3245.0,40.71644423,-73.98233056,NYCBS DEPOT - DELANCEY
427,3249.0,40.68035608,-73.9476791,Verona Pl & Fulton St
428,3254.0,40.69231661,-74.01486576,Soissons Landing
429,3255.0,40.75058535,-73.99468482,8 Ave & W 31 St
430,3256.0,40.72771408,-74.01129574,Pier 40 - Hudson River Park
431,3258.0,40.75018156,-74.00218427,W 27 St & 10 Ave
432,3259.0,40.74937024,-73.99923384,9 Ave & W 28 St
433,3260.0,40.72706363,-73.99662137,Mercer St & Bleecker St
434,3263.0,40.72951496,-73.9907527,Cooper Square & Astor Pl
435,3270.0,40.72528911,-74.04557168,Jersey & 6th St
436,3282.0,40.78307,-73.95939,5 Ave & E 88 St
437,3283.0,40.7882213,-73.97041561,W 89 St & Columbus Ave
438,3284.0,40.7814107,-73.95595908,E 88 St & Park Ave
439,3285.0,40.78839,-73.9747,W 87 St & Amsterdam Ave
440,3286.0,40.7806284,-73.9521667,E 89 St & 3 Ave
441,3288.0,40.778301,-73.9488134,E 88 St & 1 Ave
442,3289.0,40.79017948,-73.97288918,W 90 St & Amsterdam Ave
443,3290.0,40.7779453,-73.94604100000001,E 89 St & York Ave
444,3292.0,40.785785100000005,-73.957481,5 Ave & E 93 St
445,3293.0,40.7921,-73.9739,W 92 St & Broadway
446,3294.0,40.7835016,-73.955327,E 91 St & Park Ave
447,3295.0,40.791270000000004,-73.964839,Central Park W & W 96 St
448,3296.0,40.78245418,-73.94891962,E 93 St & 2 Ave
449,3297.0,40.668662700000006,-73.97988067,6 St & 7 Ave
450,3298.0,40.686371,-73.99383324,Warren St & Court St
451,3299.0,40.788129999999995,-73.95206,E 98 St & Park Ave
452,3300.0,40.66514682,-73.97637606,Prospect Park West & 8 St
453,3301.0,40.7919557,-73.968087,Columbus Ave & W 95 St
454,3302.0,40.7969347,-73.96434123,Columbus Ave & W 103 St
455,3303.0,40.6849894,-73.99440329,Butler St & Court St
456,3304.0,40.668127,-73.98377641,6 Ave & 9 St
457,3305.0,40.7811223,-73.94965589,E 91 St & 2 Ave
458,3306.0,40.666207799999995,-73.98199886,10 St & 7 Ave
459,3307.0,40.7941654,-73.974124,West End Ave & W 94 St
460,3308.0,40.686175799999994,-73.99645295,Kane St & Clinton St
461,3309.0,40.7859201,-73.94860294,E 97 St & 3 Ave
462,3310.0,40.663779,-73.98396846,14 St & 7 Ave
463,3311.0,40.68763155,-74.0016256,Columbia St & Kane St
464,3312.0,40.78172120000001,-73.94594000000001,1 Ave & E 94 St
465,3313.0,40.666318100000005,-73.9854617,6 Ave & 12 St
466,3314.0,40.7937704,-73.971888,W 95 St & Broadway
467,3315.0,40.684751399999996,-73.99917254,Henry St & Degraw St
468,3317.0,40.6686273,-73.98700053,10 St & 5 Ave
469,3318.0,40.7839636,-73.94716729999999,2 Ave & E 96 St
470,3319.0,40.666287,-73.98895053,14 St & 5 Ave
471,3320.0,40.79406661,-73.96286845,Central Park West & W 100 St
472,3321.0,40.683116399999996,-73.99785267,Clinton St & Union St
473,3322.0,40.668603000000004,-73.99043940000001,12 St & 4 Ave
474,3323.0,40.798185600000004,-73.96059090000001,W 106 St & Central Park West
475,3324.0,40.6685455,-73.99333264,3 Ave & 14 St
476,3326.0,40.67434,-74.00194698,Clinton St & Centre St
477,3327.0,40.787721399999995,-73.94728331,3 Ave & E 100 St
478,3328.0,40.795,-73.9645,W 100 St & Manhattan Ave
479,3329.0,40.6829151,-73.99318208,Degraw St & Smith St
480,3330.0,40.672505799999996,-74.00494695,Henry St & Bay St
481,3331.0,40.8013434,-73.97114574,Riverside Dr & W 104 St
482,3332.0,40.68199044,-73.99079025,Degraw St & Hoyt St
483,3333.0,40.6747055,-74.00755720000001,Columbia St & Lorraine St
484,3336.0,40.787801,-73.953559,E 97 St & Madison Ave
485,3337.0,40.67363551,-74.01195556,Dwight St & Van Dyke St
486,3338.0,40.786258600000004,-73.94552579,2 Ave & E 99 St
487,3339.0,40.6765304,-73.97846879,Berkeley Pl & 6 Ave
488,3340.0,40.6753274,-74.0100698,Wolcott St & Dwight St
489,3341.0,40.795346,-73.96186,Central Park West & W 102 St
490,3342.0,40.677774799999995,-74.0094613,Pioneer St & Richards St
491,3343.0,40.7997568,-73.96211287,W 107 St & Columbus Ave
492,3344.0,40.679043,-74.011169,Pioneer St & Van Brunt St
493,3345.0,40.78948542,-73.95242929,Madison Ave & E 99 St
494,3346.0,40.67514684,-73.97523209,Berkeley Pl & 7 Ave
495,3347.0,40.6773429,-74.01275056,Van Brunt St & Wolcott St
496,3348.0,40.677236,-74.015665,Coffey St & Conover St
497,3349.0,40.6729679,-73.97087984,Grand Army Plaza & Plaza St West
498,3350.0,40.797372100000004,-73.97041192,W 100 St & Broadway
499,3351.0,40.7869946,-73.94164802,E 102 St & 1 Ave
500,3352.0,40.67267243,-74.00879525,Sigourney St & Columbia St
501,3354.0,40.668132,-73.97363831,3 St & Prospect Park West
502,3355.0,40.76800889,-73.96845281,E 66 St & Madison Ave
503,3356.0,40.7746671,-73.98470567,Amsterdam Ave & W 66 St
504,3357.0,40.80083629999999,-73.96644925,W 106 St & Amsterdam Ave
505,3358.0,40.671197799999995,-73.97484126,Garfield Pl & 8 Ave
506,3359.0,40.7691572,-73.96703464,E 68 St & Madison Ave
507,3360.0,40.7829391,-73.9786517,Amsterdam Ave & W 79 St
508,3361.0,40.6740886,-73.9787282,Carroll St & 6 Ave
509,3362.0,40.7781314,-73.96069399,Madison Ave & E 82 St
510,3363.0,40.7904828,-73.95033068,E 102 St & Park Ave
511,3364.0,40.6751622,-73.9814832,Carroll St & 5 Ave
512,3365.0,40.67038370000001,-73.97839676,3 St & 7 Ave
513,3366.0,40.8021174,-73.96818053,West End Ave & W 107 St
514,3367.0,40.792255299999994,-73.95249933,5 Ave & E 103 St
515,3368.0,40.672815500000006,-73.98352355,5 Ave & 3 St
516,3369.0,40.7724607,-73.9468208,E 82 St & East End Ave
517,3370.0,40.7727966,-73.95577801,E 78 St & 2 Ave
518,3371.0,40.67461342,-73.98501143,4 Ave & 2 St
519,3372.0,40.7689738,-73.95482273,E 74 St & 1 Ave
520,3373.0,40.675070500000004,-73.98775226,3 St & 3 Ave
521,3374.0,40.799484,-73.955613,Central Park North & Adam Clayton Powell Blvd
522,3375.0,40.7699426,-73.96060712,3 Ave & E 72 St
523,3376.0,40.76471852,-73.9622207,E 65 St & 2 Ave
524,3377.0,40.6786115,-73.99037292,Carroll St & Bond St
525,3378.0,40.773763,-73.96222088,E 76 St & Park Ave
526,3379.0,40.790305100000005,-73.94755757,E 103 St & Lexington Ave
527,3381.0,40.6777287,-73.99364123,3 St & Hoyt St
528,3382.0,40.680611,-73.99475825,Carroll St & Smith St
529,3383.0,40.804213,-73.96699104,Cathedral Pkwy & Broadway
530,3384.0,40.678724200000005,-73.99599099,Smith St & 3 St
531,3386.0,40.6809591,-73.99905709,1 Pl & Clinton St
532,3387.0,40.79343370000001,-73.94945003,E 106 St & Madison Ave
533,3388.0,40.6828003,-73.99990419,President St & Henry St
534,3389.0,40.6830456,-74.00348559,Carroll St & Columbia St
535,3390.0,40.79329668,-73.9432083,E 109 St & 3 Ave
536,3391.0,40.7892529,-73.93956237,E 106 St & 1 Ave
537,3392.0,40.681211700000006,-74.00860912,Commerce St & Van Brunt St
538,3393.0,40.67943270000001,-74.00785041,Richards St & Delavan St
539,3394.0,40.6769993,-74.00647134,Columbia St & W 9 St
540,3396.0,40.6783563,-74.00014502,Clinton St & 4 Place
541,3397.0,40.6763947,-73.99869893,Court St & Nelson St
542,3398.0,40.67469570000001,-73.99785768,Smith St & 9 St
543,3399.0,40.67260298,-73.98983002,7 St & 3 Ave
544,3400.0,40.796153499999996,-73.94782145,E 110 St & Madison Ave
545,3401.0,40.6724811,-73.99331394,2 Ave & 9 St
546,3402.0,40.6902375,-73.99203074,Court St & State St
547,3403.0,40.6705135,-73.98876585,4 Ave & 9 St
548,3404.0,40.670492200000005,-73.98541675,7 St & 5 Ave
549,3405.0,40.670483600000004,-73.98208968,5 St & 6 Ave
550,3407.0,40.679097999999996,-73.98765475,Union St & Nevins St
551,3408.0,40.6881529,-73.99520919,Congress St & Clinton St
552,3409.0,40.686744299999994,-73.99063168,Bergen St & Smith St
553,3410.0,40.686444200000004,-73.98759104,Dean St & Hoyt St
554,3411.0,40.6849668,-73.98620772,Bond St & Bergen St
555,3412.0,40.6853761,-73.98302136,Pacific St & Nevins St
556,3413.0,40.6827549,-73.98258555,Wyckoff St & 3 Ave
557,3414.0,40.68094472,-73.97567332,Bergen St & Flatbush Ave
558,3415.0,40.6793307,-73.97519523,Prospect Pl & 6 Ave
559,3417.0,40.6795766,-73.97854971,Baltic St & 5 Ave
560,3418.0,40.675020700000005,-73.97111473,Plaza St West & Flatbush Ave
561,3419.0,40.67927879999999,-73.98154004,Douglass St & 4 Ave
562,3420.0,40.6802133,-73.98432695,Douglass St & 3 Ave
563,3421.0,40.6843549,-73.98901629,Hoyt St & Warren St
564,3422.0,40.6859296,-74.00242364,Columbia St & Degraw St
565,3423.0,40.66106337,-73.97945255,West Drive & Prospect Park West
566,3424.0,40.791976,-73.945993,E 106 St & Lexington Ave
567,3425.0,40.789210499999996,-73.94370784,2 Ave & E 104 St
568,3427.0,40.72430527,-73.99600983,Lafayette St & Jersey St
569,3429.0,40.68506807,-73.9779076,Hanson Pl & Ashland Pl
570,3430.0,40.71907891,-73.94223690000001,Richardson St & N Henry St
571,3431.0,40.746524,-73.977885,E 35 St & 3 Ave
572,3432.0,40.66906014,-73.99463654,NYCBS Depot - GOW
573,3434.0,40.79025417,-73.9771834,W 88 St & West End Ave
574,3435.0,40.718821999999996,-73.99596,Grand St & Elizabeth St
575,3437.0,40.79313481,-73.97700369,Riverside Dr & W 91 St
576,3438.0,40.77224854,-73.95842135,E 76 St & 3 Ave
577,3440.0,40.69241829,-73.98949474,Fulton St & Adams St
578,3441.0,40.752957,-74.00264,10 Hudson Yards
579,3443.0,40.76132983,-73.97982001,W 52 St & 6 Ave
580,3449.0,40.72146256,-73.94800901,Eckford St & Engert Ave
581,3452.0,40.71915572,-73.94885391,Bayard St & Leonard St
582,3453.0,40.71335226,-73.94910336,Devoe St & Lorimer St
583,3454.0,40.71036854,-73.94705951,Leonard St & Maujer St
584,3456.0,40.71638032,-73.94821286,Jackson St & Leonard St
585,3457.0,40.76302594,-73.97209525,E 58 St & Madison Ave
586,3458.0,40.76309387,-73.97835016,W 55 St & 6 Ave
587,3459.0,40.75763228,-73.96930575,E 53 St & 3 Ave
588,3461.0,40.71485151,-74.01122332,Murray St & Greenwich St
589,3462.0,40.75118387,-73.97138715,E 44 St & 2 Ave
590,3463.0,40.73536706,-73.98797393,E 16 St & Irving Pl
591,3467.0,40.72494672,-74.00165856,W Broadway & Spring Street
592,3469.0,40.73181402,-73.95995021,India St & West St
593,3472.0,40.74275383,-74.00747359,W 15 St & 10 Ave
594,3474.0,40.725255700000005,-74.00412083,6 Ave & Spring St
595,3477.0,40.65539977,-74.01062787,39 St & 2 Ave - Citi Bike HQ at Industry City
596,3478.0,40.65708867,-74.00870204,2 Ave & 36 St - Citi Bike HQ at Industry City
597,3479.0,40.6851256,-74.02535319,Picnic Point
598,3481.0,40.71649,-74.04105,York St
599,3486.0,40.68841743,-73.98451656,Schermerhorn St & Bond St
600,3489.0,40.71069995,-74.00354147,Gold St & Frankfort St
601,3490.0,40.796879,-73.93726099999999,E 116 St & 2 Ave
602,3491.0,40.797470000000004,-73.93504,E 118 St & 1 Ave
603,3492.0,40.8005385,-73.9419949,E 118 St & Park Ave
604,3493.0,40.799139000000004,-73.9389152,E 118 St & 3 Ave
605,3494.0,40.797911,-73.9423,E 115 St & Lexington Ave
606,3495.0,40.79456629999999,-73.9362541,E 114 St & 1 Ave
607,3496.0,40.7923272,-73.9383,1 Ave & E 110 St
608,3497.0,40.794987899999995,-73.9333349,Pleasant Ave & E 116 St
609,3498.0,40.7974772,-73.9311847,Pleasant Ave & E 120 St
610,3499.0,40.8006721,-73.9349,2 Ave & E 122 St
611,3500.0,40.7989445,-73.944846,E 115 St & Madison Ave
612,3501.0,40.801486600000004,-73.9442507,E 118 St & Madison Ave
613,3502.0,40.79541210000001,-73.9441232,Lexington Ave & E 111 St
614,3503.0,40.80295,-73.942954,Madison Ave & E 120 St
615,3504.0,40.802926299999996,-73.9379,E 123 St & Lexington Ave
616,3505.0,40.805726,-73.936322,Lexington Ave & E 127 St
617,3506.0,40.8013066,-73.93981670000001,Lexington Ave & E 120 St
618,3507.0,40.8045555,-73.93968609999999,Park Ave & E 124 St
619,3508.0,40.809725,-73.953149,St Nicholas Ave & Manhattan Ave
620,3509.0,40.8011939,-73.9500739,Lenox Ave & W 115 St
621,3510.0,40.8078316,-73.949373,Adam Clayton Powell Blvd & W 123 St
622,3511.0,40.802535,-73.9532423,Adam Clayton Powell Blvd & W 115 St
623,3512.0,40.7747175,-73.93378940000001,27 Ave & 4 St
624,3513.0,40.774645,-73.92370600000001,21 St & Hoyt Ave S
625,3514.0,40.7767,-73.927631,Astoria Park S & Shore Blvd
626,3515.0,40.774591,-73.918544,24 Ave & 26 St
627,3516.0,40.76991760000001,-73.91840570000001,31 St & Astoria Blvd
628,3517.0,40.771152799999996,-73.9170074,31 St & Hoyt Ave N
629,3518.0,40.808442,-73.94520870000001,Lenox Ave & W 126 St
630,3520.0,40.804372,-73.951475,Adam Clayton Powell Blvd & W 118 St
631,3521.0,40.7987859,-73.9523,Lenox Ave & W 111 St
632,3522.0,40.7701477,-73.9120938,37 St & 24 Ave
633,3523.0,40.7729,-73.91614200000001,24 Ave & 29 St
634,3524.0,40.777455200000006,-73.9225403,19 St & 24 Ave
635,3525.0,40.776165,-73.9153175,23 Ave & 27 St
636,3526.0,40.7747878,-73.91255509999999,31 St & 23 Ave
637,3527.0,40.806979999999996,-73.94174699999999,5 Ave & E 126 St
638,3528.0,40.771393700000004,-73.9077436,Steinway St & 23 Ave
639,3529.0,40.8107922,-73.9430681,Lenox Ave & W 130 St
640,3530.0,40.7787185,-73.9145645,Crescent St & Ditmars Blvd
641,3531.0,40.8125511,-73.9492286,Frederick Douglass Blvd & W 129 St
642,3532.0,40.78145,-73.9183302,Ditmars Blvd & 19 St
643,3533.0,40.8114323,-73.95187759999999,St. Nicholas Ave & W 126 St
644,3534.0,40.805159,-73.95469200000001,Frederick Douglass Blvd & W 117 St
645,3535.0,40.804038,-73.945925,Mt Morris Park W & W 120 St
646,3536.0,40.8082,-73.9641,W 116 St & Broadway
647,3537.0,40.68097410000001,-73.97100970000001,Carlton Ave & Dean St
648,3538.0,40.802692,-73.96295,W 110 St & Amsterdam Ave
649,3539.0,40.8067581,-73.9607082,W 116 St & Amsterdam Ave
650,3540.0,40.81,-73.9551508,Morningside Ave & W 123 St
651,3541.0,40.813358,-73.956461,Amsterdam Ave & W 125 St
652,3542.0,40.8086249,-73.9596214,Amsterdam Ave & W 119 St
653,3543.0,40.81028506,-73.95736456,Morningside Dr & Amsterdam Ave
654,3544.0,40.6804836,-73.9646795,Underhill Ave & Pacific St
655,3545.0,40.8120562,-73.9612547,Broadway & W 122 St
656,3546.0,40.67919439999999,-73.95879029999999,Pacific St & Classon Ave
657,3547.0,40.8143256,-73.9590255,Broadway & Moylan Pl
658,3549.0,40.678045000000004,-73.962408,Grand Ave & Bergen St
659,3551.0,40.795508,-73.94160600000001,3 Ave & E 112 St
660,3552.0,40.805973,-73.964928,W 113 St & Broadway
661,3553.0,40.801694,-73.957145,Frederick Douglass Blvd & W 112 St
662,3554.0,40.7552433,-73.94856779999999,Vernon Blvd & 41 Rd
663,3555.0,40.751047,-73.93796999999999,28 St & 41 Ave
664,3556.0,40.752708500000004,-73.9397405,24 St & 41 Ave
665,3557.0,40.75742,-73.945133,40 Ave & 9 St
666,3558.0,40.6794388,-73.96804379999999,Bergen St & Vanderbilt Ave
667,3559.0,40.7576314,-73.9391224,21 St & 38 Ave
668,3560.0,40.754876,-73.934326,28 St & 38 Ave
669,3561.0,40.7531106,-73.9279917,37 Ave & 35 St
670,3562.0,40.676519799999994,-73.9596082,Classon Ave & St Marks Ave
671,3563.0,40.757186,-73.93271899999999,28 St & 36 Ave
672,3564.0,40.760185299999996,-73.9362726,21 St & 36 Ave
673,3565.0,40.7614376,-73.9411265,36 Ave & 10 St
674,3566.0,40.7596276,-73.93214549999999,Crescent St & 35 Ave
675,3567.0,40.76274420000001,-73.9391141,11 St & 35 Ave
676,3568.0,40.756933200000006,-73.92622309999999,34 St & 35 Ave
677,3569.0,40.6758324,-73.95616770000001,Franklin Ave & St Marks Ave
678,3570.0,40.7557327,-73.92366109999999,35 Ave & 37 St
679,3571.0,40.676368,-73.95291800000001,Bedford Ave & Bergen St
680,3572.0,40.756913,-73.921631,34 Ave & 38 St
681,3573.0,40.7580583,-73.92427509999999,35 St & 34 Ave
682,3574.0,40.6769694,-73.96579,Prospect Pl & Underhill Ave
683,3575.0,40.76108,-73.930562,Crescent St & 34 Ave
684,3576.0,40.6767,-73.969024,Park Pl & Vanderbilt Ave
685,3577.0,40.762813799999996,-73.9342862,34 Ave & 21 St
686,3578.0,40.67418060000001,-73.95649470000001,Park Pl & Franklin Ave
687,3579.0,40.672695000000004,-73.954131,Sterling Pl & Bedford Ave
688,3580.0,40.6737236,-73.9631611,St Johns Pl & Washington Ave
689,3581.0,40.674012299999994,-73.9671457,Underhill Ave & Lincoln Pl
690,3582.0,40.672168299999996,-73.9609,Lincoln Pl & Classon Ave
691,3583.0,40.6716493,-73.9631145,Eastern Pkwy & Washington Ave
692,3584.0,40.670776700000005,-73.9576801,Eastern Pkwy & Franklin Ave
693,3585.0,40.6691783,-73.9554162,Union St & Bedford Ave
694,3586.0,40.763875299999995,-73.9364848,34 Ave & 13 St
695,3587.0,40.6686744,-73.9618148,Carroll St & Washington Ave
696,3588.0,40.7671863,-73.9373554,Vernon Blvd & 10 St
697,3589.0,40.7668,-73.93477740000002,Broadway & 12 St
698,3590.0,40.6679411,-73.9588,Carroll St & Franklin Ave
699,3591.0,40.7659,-73.930819,21 St & 31 Dr
700,3592.0,40.7633589,-73.92864709999999,Crescent St & Broadway
701,3593.0,40.761584,-73.925921,31 St & Broadway
702,3595.0,40.760339,-73.9222427,35 St & Broadway
703,3596.0,40.6642406,-73.9574686,Sullivan Pl & Bedford Ave
704,3597.0,40.7577284,-73.9166368,43 St & Broadway
705,3598.0,40.7595701,-73.91426779999999,Newton Rd & 44 St
706,3599.0,40.663140000000006,-73.96056949999999,Franklin Ave & Empire Blvd
707,3601.0,40.6627059,-73.9569115,Sterling St & Bedford Ave
708,3602.0,40.763154,-73.920827,31 Ave & 34 St
709,3603.0,40.7647,-73.9240312,31 Ave & 30 St
710,3604.0,40.6630619,-73.95387459999999,Rogers Ave & Sterling St
711,3605.0,40.765834600000005,-73.9265474,31 Ave & Crescent St
712,3606.0,40.74252,-73.948852,49 Ave & 21 St
713,3607.0,40.7682,-73.9322662,31 Ave & 14 St
714,3608.0,40.7423737,-73.9566,5 St & 51 Ave
715,3609.0,40.7692475,-73.93545040000001,Vernon Blvd & 31 Ave
716,3610.0,40.770845,-73.93417099999999,Vernon Blvd & 30 Rd
717,3611.0,40.7449067,-73.9534573,Vernon Blvd & 47 Rd
718,3612.0,40.77037429999999,-73.9286078,30 Ave & 21 St
719,3613.0,40.745038,-73.957539,Center Blvd & 48 Ave
720,3614.0,40.768692,-73.9249574,Crescent St & 30 Ave
721,3615.0,40.748000000000005,-73.94609270000001,44 Dr & 21 St
722,3616.0,40.7656251,-73.9136695,Steinway St & 28 Ave
723,3617.0,40.7671,-73.9169858,28 Ave & 35 St
724,3618.0,40.7485,-73.941275,27 St & Hunter St
725,3619.0,40.7713615,-73.9246145,Newtown Ave & 23 St
726,3620.0,40.7519071,-73.94791190000001,11 St & 43 Ave
727,3621.0,40.7739825,-73.93091340000001,27 Ave & 9 St
728,3622.0,40.807559999999995,-73.93918199999999,E 128 St & Madison Ave
729,3623.0,40.8109494,-73.9634,W 120 St & Claremont Ave
730,3625.0,40.752575799999995,-73.9364281,28 St & 40 Ave
731,3628.0,40.8025566,-73.9490782,Lenox Ave & W 117 St
732,3629.0,40.80949535,-73.94776493,Adam Clayton Powell Blvd & W 126 St
733,3630.0,40.8038654,-73.95593079999999,Frederick Douglass Blvd & W 115 St
734,3631.0,40.666563000000004,-73.95674100000001,Crown St & Bedford Ave
735,3632.0,40.72804857,-73.9788115,E 12 St & Avenue B
736,3637.0,40.68323865,-73.96599591,Fulton St & Waverly Ave
737,3639.0,40.71925170000001,-74.034234,Harborside
738,3641.0,40.74286877,-73.98918629,Broadway & W 25 St
739,3646.0,40.76315482,-73.9398551,35 Ave & 10 St
740,3647.0,40.74128309,-73.93725872,48 Ave & 30 Pl
741,3648.0,40.69795032,-73.9707756,Flushing Ave & Vanderbilt Ave
742,3649.0,40.81439444,-73.95324737,W 129 St & Convent Ave
743,3653.0,40.75820465,-73.92832159999999,31 St & 35 Ave
744,3654.0,40.75186951,-73.9334929,31 St & Northern Blvd
745,3656.0,40.72307749,-73.98583621,E 2 St & Avenue A
746,3658.0,40.74353373,-74.00367558,W 18 St & 9 Ave
747,3659.0,40.74294892,-74.00413692,W 17 St & 9 Ave
748,3660.0,40.74102151,-74.00138497,W 16 St & 8 Ave
749,3661.0,40.66643931,-73.96055639,Montgomery St & Franklin Ave
750,3662.0,40.7612939,-73.91691685,31 Ave & Steinway St
751,3663.0,40.67716489,-73.97382796,Sterling Pl & 7 Ave
752,3664.0,40.72019521,-74.01030064,North Moore St & Greenwich St
753,3666.0,40.76642553,-73.92062902,32 St & 30 Ave
754,3668.0,40.72395678,-73.94984365,Leonard St & Nassau Ave
755,3669.0,40.67630358,-74.00314048,Henry St & W 9 St
756,3671.0,40.77477945,-73.95427465,E 81 St & 2 Ave
757,3673.0,40.67759207,-73.95563722,Dean St & Franklin Ave
758,3674.0,40.70140317,-73.9867267,Jay St & York St
759,3675.0,40.7845968,-73.94968539,3 Ave & E 95 St
760,3676.0,40.67583294,-74.01472628,Van Brunt St & Van Dyke St
761,3680.0,40.75412081,-73.98025185,E 43 St & 5 Ave
762,3684.0,40.73756121,-74.00398269,W 12 St & W 4 St
763,3686.0,40.739448200000005,-74.00507033,Gansevoort St & Hudson St
764,3687.0,40.74322681,-73.97449784,E 33 St & 1 Ave
765,3688.0,40.75792021,-73.96638215,2 Ave & E 55 St
766,3689.0,40.79904139,-73.96649479999999,W 104 St & Amsterdam Ave
767,3690.0,40.71334184,-74.00935516,Park Pl & Church St
768,3691.0,40.76408932,-73.91065121,28 Ave & 44 St
769,3692.0,40.69999748,-73.97440128,5 St & Market St
770,3693.0,40.72248189,-73.95921931,N 11 St & Kent Ave
771,3695.0,40.72686952,-73.98919031,E 5 St & 2 Ave
772,3697.0,40.77515953,-73.98918696,W 64 St & Thelonious Monk Circle
773,3699.0,40.76360468,-73.98917958,W 50 St & 9 Ave
774,3700.0,40.77940609,-73.95333588,E 87 St & 3 Ave
775,3701.0,40.70831794,-74.00504082,Cliff St & Fulton St
776,3704.0,40.74375241,-73.94176483,47 Ave & Skillman Ave
777,3705.0,40.72840059,-73.99968781,Thompson St & Bleecker St
778,,40.842,-73.884,
779,,40.863,-73.905,
780,,40.845,-73.881,
781,,40.848,-73.905,
782,,40.86,-73.908,
783,,40.857,-73.887,
784,,40.854,-73.887,
785,,40.854,-73.881,
786,,40.86,-73.89,
787,,40.857,-73.881,
788,,40.842,-73.881,
789,,40.848,-73.908,
790,,40.866,-73.884,
791,,40.86,-73.899,
792,,40.848,-73.911,
793,,40.854,-73.902,
794,,40.845,-73.89,
795,,40.857,-73.911,
796,,40.839,-73.884,
797,,40.863,-73.884,
798,,40.86,-73.881,
799,,40.86,-73.887,
800,,40.842,-73.887,
801,,40.845,-73.902,
802,,40.848,-73.881,
803,,40.866,-73.896,
804,,40.869,-73.896,
805,,40.848,-73.914,
806,,40.851,-73.881,
807,,40.866,-73.887,
808,,40.863,-73.89,
809,,40.857,-73.89,
810,,40.863,-73.899,
811,,40.863,-73.893,
812,,40.848,-73.89,
813,,40.851,-73.905,
814,,40.857,-73.902,
815,,40.857,-73.893,
816,,40.854,-73.911,
817,,40.842,-73.89,
818,,40.851,-73.899,
819,,40.848,-73.899,
820,,40.854,-73.89,
821,,40.866,-73.893,
822,,40.854,-73.896,
823,,40.863,-73.902,
824,,40.86,-73.905,
825,,40.839,-73.878,
826,,40.857,-73.884,
827,,40.848,-73.902,
828,,40.845,-73.896,
829,,40.845,-73.905,
830,,40.854,-73.899,
831,,40.851,-73.908,
832,,40.86,-73.884,
833,,40.854,-73.884,
834,,40.842,-73.878,
835,,40.86,-73.902,
836,,40.851,-73.911,
837,,40.86,-73.893,
838,,40.857,-73.908,
839,,40.857,-73.905,
840,,40.869,-73.899,
841,,40.848,-73.884,
842,,40.863,-73.896,
843,,40.854,-73.893,
844,,40.869,-73.902,
845,,40.866,-73.899,
846,,40.86,-73.896,
847,,40.848,-73.896,
848,,40.851,-73.89,
849,,40.857,-73.896,
850,,40.845,-73.899,
851,,40.845,-73.911,
852,,40.854,-73.908,
853,,40.848,-73.917,
854,,40.848,-73.893,
855,,40.851,-73.917,
856,,40.848,-73.887,
857,,40.845,-73.884,
858,,40.851,-73.893,
859,,40.863,-73.881,
860,,40.845,-73.893,
861,,40.851,-73.902,
862,,40.845,-73.923,
863,,40.851,-73.884,
864,,40.845,-73.878,
865,,40.863,-73.887,
866,,40.866,-73.905,
867,,40.851,-73.887,
868,,40.869,-73.884,
869,,40.866,-73.902,
870,,40.851,-73.914,
871,,40.857,-73.899,
872,,40.845,-73.908,
